"X","pop","code","name","rho","spring","autumn","summer","winter","unknown","Notes","secchi","lon","lat","F261Y","I213T","Salinity"
1,"A_Kalix_Baltic_Spring","A_Kalix_Baltic_Spring","AKalix","Y","Y","","",NA,NA,NA,4.46273713170849,23.143965,65.855281,1,0.375,5.43188115172997
2,"B_Vaxholm_Baltic_Spring","B_Vaxholm_Baltic_Spring","BVaxholm","Y","Y","","",NA,NA,NA,5.9145041979528,18.32638,59.403297,0.805555555555556,0.575,6.13758986335399
3,"G_Gamleby_Baltic_Spring","G_Gamleby_Baltic_Spring","GGamleby","Y","Y","","",NA,NA,NA,6.05429671192613,16.45,57.833333,0.901960784313726,0.492063492063492,6.6866981854769
4,"HGS11_RingkobingFjord_Spring","HGS11_RingkobingFjord_NorthSea_Spring","RingkobingFjord","Y","Y","","",NA,NA,NA,9.05971145629883,8.204706,55.997827,0.0232558139534884,0,32.0156937121218
5,"HGS12_BornholmBasin_Baltic_Autumn","HGS12_BornholmBasin_Baltic_Autumn","Bornholm","Y","","Y","",NA,NA,NA,6.61408553162592,14.93829,55.227033,0.05,0,8.84053488845985
6,"HGS15_NSSH_Atlantic_Spring","HGS15_NSSH_Atlantic_Spring","NSSH_Norway","Y","Y","","",NA,NA,NA,9.05971145629883,4.758587,60.428352,0,0,34.4821899734102
7,"HGS1_Riga_Baltic_Spring","HGS1_Riga_Baltic_Spring","Riga","Y","Y","","",NA,NA,NA,3.48335751070484,24.020233,57.066124,0.780821917808219,0.380952380952381,6.00889579646014
8,"HGS2_Riga_Baltic_Spring","HGS2_Riga_Baltic_Spring","Riga","Y","Y","","",NA,NA,NA,3.48335751070484,24.020233,57.066124,1,0.411764705882353,6.00889579646014
9,"HGS3_Riga_Baltic_Autumn","HGS3_Riga_Baltic_Autumn","Riga","Y","","Y","",NA,NA,NA,3.48335751070484,24.020233,57.066124,0.404255319148936,0.166666666666667,6.00889579646014
10,"HGS4_Riga_Baltic_Autumn","HGS4_Riga_Baltic_Autumn","Riga","Y","","Y","",NA,NA,NA,3.48335751070484,24.020233,57.066124,0.321428571428571,0.176470588235294,6.00889579646014
11,"HGS5_Schlei_Baltic_Autumn","HGS5_Schleich_Baltic_Autumn","Schleich","Y","","Y","",NA,NA,NA,6.80611966161027,9.852501,54.595976,0,0,25.3065431973004
12,"HGS6_Schlei_Baltic_Spring","HGS5_Schleich_Baltic_Spring","Schleich","Y","Y","","",NA,NA,NA,6.80611966161027,9.852501,54.595976,0.0416666666666667,0,25.3065431973004
13,"HGS71_Rugen_Baltic_Spring","HGS71_Rugen_Baltic_Spring","Rugen","Y","Y","","",NA,NA,NA,4.53570378635248,13.546667,54.222778,0.111111111111111,0,10.9437470971991
14,"HGS72_Rugen_Baltic_Spring","HGS72_Rugen_Baltic_Spring","Rugen","Y","Y","","",NA,NA,NA,4.53570378635248,13.546667,54.222778,0.0638297872340425,0,10.9437470971991
15,"HGS8_KattegatNorth_Atlantic_Spring","HGS8_KattegatNorth_Atlantic_Spring","Kattegat","Y","Y","","",NA,NA,NA,8.67786984122663,11.7,57.716667,0,0,30.7022281069008
16,"H_Fehmarn_Baltic_Autumn","H_Fehmarn_Baltic_Autumn","HFehmarn","Y","","Y","",NA,NA,NA,6.62759204603484,11.132927,54.470054,0.0701754385964912,0,19.0088423988621
17,"J_Träslövsläge_Kattegat_Spring","J_Traslovslage_Baltic_Spring","JTraslovslage","","Y","","",NA,NA,NA,8.42635712720902,12.183333,57.05,0.0714285714285714,0.09375,27.987429955284
18,"N_NorthSea_Atlantic_Autumn","N_NorthSea_Atlantic_Autumn","NNorthSea","Y","","Y","",NA,NA,NA,9.05971145629883,6.166667,58.1,0,0,34.2209596615559
19,"O_Hamburgsund_Atlantic_Spring","O_Hamburgsund_Atlantic_Spring","OHamburgsund","Y","Y","","",NA,NA,NA,9.05971145629883,11.216667,58.5,0,0,31.6522889092393
20,"PB10_Skagerrak_Atlantic_Spring","PB10_Skagerrak_Atlantic_Spring","Skagerrak","Y","Y","","",NA,NA,NA,9.05971145629883,11.35,58.316667,0,0,31.3836444716139
21,"PB11_Kalmar_Baltic_Spring","PB11_Kalmar_Baltic_Spring","Kalmar","Y","Y","","",NA,NA,NA,5.82825257879223,16.356779,56.663445,0.65625,0.444444444444444,7.01128554450614
22,"PB12_Karlskrona_Baltic_Spring","PB12_Karlskrona_Baltic_Spring","Karlskrona","Y","Y","","",NA,NA,NA,6.34621404143295,15.5869,56.161224,0.744186046511628,0.368421052631579,8.01810041592221
23,"PB1_Hästskär_Baltic_Spring","PB1_Hastskor_Baltic_Spring","Hastskar","Y","Y","","",NA,NA,NA,5.14975823413207,17.739702,60.532414,1,0.548387096774194,5.40433687246321
24,"PB2_Iceland_Atlantic_Spring","PB2_Iceland_Atlantic_Spring","Iceland","Y","Y","","",NA,NA,NA,9.05971145629883,-12.966667,65.816667,0,0,34.8622962797705
25,"PB4_Hudiksvall_Baltic_Spring","PB4_Hudiksvall_Baltic_Spring","Hudiksvall","Y","Y","","",NA,NA,NA,5.70358352742548,17.107401,61.727391,0.553191489361702,0.181818181818182,5.14708714773719
26,"PB5_Gävle_Baltic_Spring","PB5_Gavle_Baltic_Spring","Gavle","Y","Y","","",NA,NA,NA,5.25544885601262,17.178326,60.68293,0.771428571428571,0.46875,5.26291175959434
27,"PB6_Gävle_Baltic_Summer","PB6_Gavle_Baltic_Summer","Gavle","Y","","","Y",NA,NA,NA,5.25544885601262,17.178326,60.68293,0.657142857142857,0.557692307692308,5.26291175959434
28,"PB7_Gävle_Baltic_Autumn","PB7_Gavle_Baltic_Autumn","Gavle","Y","","Y","",NA,NA,NA,5.25544885601262,17.178326,60.68293,0.260869565217391,0,5.26291175959434
29,"PB8_Pacific_Pacific_Spring","PB8_Pacific_Pacific_Spring","Pacific","","","","",NA,NA,NA,9.05971145629883,34.267634,66.3975,0,0,29.7931190272617
30,"PB9_Kattegat_Atlantic_Spring","PB9_Kattegat_Atlantic_Spring","Kattegat","Y","Y","","",NA,NA,NA,8.67786984122663,11.7,57.716667,0,0,30.7022281069008
31,"PN3_CentralBaltic_Baltic_Spring","PN3_CentralBaltic_Baltic_Spring","CentralBaltic","Y","Y","","",NA,NA,NA,6.38655690496404,15.85,55.4,0.763157894736842,0.483870967741935,7.80682534281466
32,"Q_Norway_Atlantic_Atlantic_Spring","Q_Norway_Atlantic_Atlantic_Spring","QAtlantic_Norway","Y","Y","","",NA,NA,NA,9.05971145629883,4.658203,61.185625,0,0,34.5683338076495
33,"DalBoB_Atlantic_Autumn","Canadian_Atlantic_1","DalBob","Y","","Y","",NA,NA,NA,9.05971145629883,-53.333333,48.816667,0,0,32.4862674414914
34,"DalFB_Atlantic_Spring","Canadian_Atlantic_2","DalFB","Y","Y","","",NA,NA,NA,9.05971145629883,-55.633333,47.283333,0,0,31.9093022389676
35,"DalGeB_Atlantic_Autumn","Canadian_Atlantic_3","DalGeB","Y","","Y","",NA,NA,NA,9.05971145629883,-66.3,43.266667,0,0,32.0266254403596
36,"DalInB_Atlantic_Spring","Canadian_Atlantic_4","DalInB","Y","Y","","",NA,NA,NA,9.05971145629883,-65.85,48,0,0,29.1156770627519
37,"DalNsF_Atlantic_Autumn","Canadian_Atlantic_5","DalNsF","Y","","Y","",NA,NA,NA,9.05971145629883,-62.6,45.733333,0,0,29.8733901536126
38,"DalNsS_Atlantic_Spring","Canadian_Atlantic_6","DalNsS","Y","Y","","",NA,NA,NA,9.05971145629883,-64.15,46.316667,0,0,29.3882840533071
